[
    {
      "id": "2147714",
      "name": "Sydney",
      "lat": -33.8688,
      "lon": 151.2093
    },
    {
      "id": "2158177",
      "name": "Melbourne",
      "lat": -37.8136,
      "lon": 144.9631
    },
    {
      "id": "2174003",
      "name": "Brisbane",
      "lat": -27.4698,
      "lon": 153.0251
    },
    {
      "id": "2078025",
      "name": "Perth",
      "lat": -31.9505,
      "lon": 115.8605
    },
    {
      "id": "2073124",
      "name": "Adelaide",
      "lat": -34.9285,
      "lon": 138.6007
    },
    {
      "id": "2172517",
      "name": "Canberra",
      "lat": -35.2835,
      "lon": 149.1281
    },
    {
      "id": "2163355",
      "name": "Hobart",
      "lat": -42.8821,
      "lon": 147.3272
    },
    {
      "id": "2165087",
      "name": "Gold Coast",
      "lat": -28.0167,
      "lon": 153.4
    },
    {
      "id": "2154855",
      "name": "Newcastle",
      "lat": -32.9283,
      "lon": 151.7817
    },
    {
      "id": "2063523",
      "name": "Wollongong",
      "lat": -34.4331,
      "lon": 150.8831
    }
  ]