[
    {
      "id": "5128581",
      "name": "New York",
      "lat": 40.7143,
      "lon": -74.006
    },
    {
      "id": "5368361",
      "name": "Los Angeles",
      "lat": 34.0522,
      "lon": -118.2437
    },
    {
      "id": "4887398",
      "name": "Chicago",
      "lat": 41.85,
      "lon": -87.65
    },
    {
      "id": "4699066",
      "name": "Houston",
      "lat": 29.7633,
      "lon": -95.3633
    },
    {
      "id": "5308655",
      "name": "Phoenix",
      "lat": 33.4484,
      "lon": -112.074
    },
    {
      "id": "4560349",
      "name": "Philadelphia",
      "lat": 39.9523,
      "lon": -75.1638
    },
    {
      "id": "4726206",
      "name": "San Antonio",
      "lat": 29.4241,
      "lon": -98.4936
    },
    {
      "id": "5391811",
      "name": "San Diego",
      "lat": 32.7153,
      "lon": -117.1573
    },
    {
      "id": "5392171",
      "name": "San Francisco",
      "lat": 37.7749,
      "lon": -122.4194
    },
    {
      "id": "5809844",
      "name": "Seattle",
      "lat": 47.6062,
      "lon": -122.3321
    }
  ]